name,id,description,category,sub_category,address,latitude,longitude,url,entrance_fee,store_hours,source,visiter_review_count,blog_review_count,all_review_count,like,dislike
국립대관령자연휴양림,11491009,대관령자연휴양림은 소나무 숲과 동해바다 전망을 즐길 수 있는 휴식공간입니다.,관광지,"휴양림,산림욕장",강원특별자치도 강릉시 성산면 삼포암길 133,37.7149097631,128.7905413133,https://m.place.naver.com/restaurant/11491009/review/visitor?entry=ple&reviewSort=recent,"입장료(어른): 1,000원 | 입장료(청소년): 600원 | 입장료(어린이): 300원 | 입장료(어른 단체): 800원",,TourAPI,771.0,550.0,1321.0,Scenic beauty; Quiet atmosphere; Cleanliness; Walking trails; Snow activities,Lack of microwave; Bring own towels; Disabled parking misuse
경포도립공원,13300191,경포대는 경포호와 경포해수욕장을 중심으로 송림과 천연기념물을 감상할 수 있는 곳입니다.,관광지,도립공원,강원특별자치도 강릉시 창해로 473 (강문동),37.8027519269,128.9101194924,https://m.place.naver.com/restaurant/13300191/review/visitor?entry=ple&reviewSort=recent,,,TourAPI,26.0,69.0,95.0,Well-designed park; Walking paths; Clean environment; Attractive sculptures; Scenic beauty,
제왕산,15700020,제왕산은 참나무 숲과 낙엽송이 우거져 맑은 공기를 마시며 산책하기 좋은 곳입니다.,관광지,산,강원특별자치도 강릉시 성산면 어흘리,37.7099545878,128.7806256921,https://m.place.naver.com/restaurant/15700020/review/visitor?entry=ple&reviewSort=recent,,,TourAPI,3.0,128.0,131.0,Beginner-friendly; Scenic views; Easy hiking,Closed restrooms
사근진해중공원 전망대,1338629806,사근진해변의 전망대에서는 탁 트인 바다를 한눈에 감상할 수 있는 멋진 경관을 제공합니다.,관광지,전망대,강원특별자치도 강릉시 해안로604번길 16,37.8127616594,128.8988285332,https://m.place.naver.com/restaurant/1338629806/review/visitor?entry=ple&reviewSort=recent,,,TourAPI,40.0,313.0,353.0,Scenic views; Photography opportunities; Water activities; Unique attractions; Romantic atmosphere,Limited attractions
노인봉,13491315,"노인봉은 1,338m 높이로 대피소와 맑은 샘터가 있어 등산객에게 좋은 휴식처입니다.",관광지,"봉우리,고지",강원특별자치도 강릉시 연곡면 삼산리,37.8306548995,128.6576247467,https://m.place.naver.com/restaurant/13491315/review/visitor?entry=ple&reviewSort=recent,,,TourAPI,18.0,573.0,591.0,Restroom; Easy hiking; Scenic views; Refreshments; Free parking,Narrow paths; Challenging hike; Limited visibility; Lack of washbasins; Insects presence
단경골 휴양지,19748069,"단경골계곡은 맑은 물과 기암괴석이 어우러진 피서지로, 캠프장과 야영장 등이 있습니다.",관광지,자연명소,강원특별자치도 강릉시 강동면 단경로 841,37.6729253976,128.9165090423,https://m.place.naver.com/restaurant/19748069/review/visitor?entry=ple&reviewSort=recent,,,TourAPI,3.0,13.0,16.0,,Poor communication; Problem resolution; Reservation issues; Unprofessional staff
구룡폭포,13491884,구룡폭포는 9개의 폭포와 만물상이 어우러진 절경을 감상할 수 있는 명소입니다.,관광지,폭포,강원특별자치도 강릉시 연곡면 소금강길 500,37.802691973,128.6835093795,https://m.place.naver.com/restaurant/13491884/review/visitor?entry=ple&reviewSort=recent,,,TourAPI,4.0,62.0,66.0,Scenic views,
남항진해변,13491444,"남항진해변은 소나무 숲과 캠핑 가능한 솔밭, 커피 거리로 유명한 강릉항이 있는 곳입니다.",관광지,"해수욕장,해변",강원특별자치도 강릉시 공항길127번길 67 (남항진동),37.7640239384,128.9543444876,https://m.place.naver.com/restaurant/13491444/review/visitor?entry=ple&reviewSort=recent,,,TourAPI,82.0,642.0,724.0,Quiet atmosphere; Family-friendly; Scenic views; Unique activities; Ample facilities,Limited facilities
송정해변,20065935,송정동에 위치한 송정은 700m 백사장과 소나무로 둘러싸인 드라이브 명소입니다.,관광지,"해수욕장,해변",강원특별자치도 강릉시 창해로 118 (송정동),37.7801522924,128.9371566462,https://m.place.naver.com/restaurant/20065935/review/visitor?entry=ple&reviewSort=recent,,,TourAPI,222.0,1318.0,1540.0,Scenic beauty; Water activities; Clean facilities; Convenience store; Parking availability,Restrictive policies; Unfair rentals; Noise issues; Poor management
등명해변,13491470,등명해변은 소나무 숲과 백사장이 어우러진 곳으로 야영과 산책에 적합한 해변입니다.,관광지,"해수욕장,해변",강원특별자치도 강릉시 강동면 정동진리,37.7042126254,129.016615738,https://m.place.naver.com/restaurant/13491470/review/visitor?entry=ple&reviewSort=recent,,,TourAPI,32.0,421.0,453.0,Relaxing atmosphere; Scenic views; Family-friendly; Friendly staff; Water activities,Poor facilities; Lack of privacy; Overcrowding
사천해변,13491268,사천 해변은 에메랄드빛 바다와 소나무 숲이 어우러진 오토캠핑 명소입니다.,관광지,"해수욕장,해변",강원특별자치도 강릉시 사천면 해안로 877,37.8292537824,128.8777410339,https://m.place.naver.com/restaurant/13491268/review/visitor?entry=ple&reviewSort=recent,,,TourAPI,185.0,1915.0,2100.0,Scenic views; Comfortable seating; Quality coffee; Pleasant atmosphere; Fresh seafood,Expensive prices; Coffee aroma
신사임당사친시비,15699373,대관령 중턱에 위치한 신사임당 기념비는 그녀의 시를 기리는 장소입니다.,관광지,기념물,강원특별자치도 강릉시 성산면 삼포암길 133,37.7149097631,128.7905413133,https://m.place.naver.com/restaurant/15699373/review/visitor?entry=ple&reviewSort=recent,,,TourAPI,5.0,32.0,37.0,Scenic views; Well-maintained restrooms; Coffee truck,
안인해변,13491186,안인해변은 맑은 물과 바위가 많아 낚시와 담수욕을 즐기기 좋은 곳입니다.,관광지,"해수욕장,해변",강원특별자치도 강릉시 강동면 안인진리,37.7343114116,128.9904199396,https://m.place.naver.com/restaurant/13491186/review/visitor?entry=ple&reviewSort=recent,,,TourAPI,21.0,261.0,282.0,Quiet atmosphere; Family-friendly; Scenic views; Clean water; Abundant marine life,Poor facilities
연곡해변,13444336,"울창한 솔밭과 백사장이 펼쳐진 연곡면 동덕리, 야영과 낚시, 맛집이 가득한 곳입니다.",관광지,"해수욕장,해변",강원특별자치도 강릉시 연곡면 해안로 1282,37.8599163974,128.8520479561,https://m.place.naver.com/restaurant/13444336/review/visitor?entry=ple&reviewSort=recent,,,TourAPI,52.0,280.0,332.0,Scenic views; Family-friendly; Spacious beach; Clean facilities; Beach activities,Steep slope; Strong waves; Deep water
주문진해수욕장,13491005,"주문진 해변은 백사장과 해송 숲, 체육공원, 야영장, 신선한 해산물로 유명한 곳입니다.",관광지,"해수욕장,해변",강원특별자치도 강릉시 주문진읍 주문북로 210(주문진읍),37.9106348733,128.8188493785,https://m.place.naver.com/restaurant/13491005/review/visitor?entry=ple&reviewSort=recent,,,TourAPI,236.0,1498.0,1734.0,Cleanliness; Family-friendly; Scenic views; Friendly service; Water activities,
남대천,13491494,"남대천은 강릉단오제와 단오공원, 강릉단오문화관 등 다양한 문화 행사가 펼쳐지는 곳입니다.",관광지,"강,하천",강원특별자치도 강릉시 성산면 구산안길,37.714116106,128.8263881088,https://m.place.naver.com/restaurant/13491494/review/visitor?entry=ple&reviewSort=recent,,,TourAPI,23.0,194.0,217.0,Scenic views; Cherry blossoms; Fountain display; Walking paths; Sports facilities,
강릉향교,11663849,강릉향교는 대성전과 명륜당 등 보물 건축물과 전통 제례가 있는 곳입니다.,관광지,"문화,유적",강원특별자치도 강릉시 명륜로 29(교동),37.7635561721,128.8952470467,https://m.place.naver.com/restaurant/11663849/review/visitor?entry=ple&reviewSort=recent,,,TourAPI,7.0,128.0,135.0,Cultural heritage; Historical architecture; Guided tours; Photogenic views; Cultural events,
강릉 임영관 삼문,749351147,강릉 임영관 삼문은 조선 초기 양식의 팔각 문으로 강릉의 대표적인 문화유산입니다.,관광지,"문화,유적",강원특별자치도 강릉시 임영로131번길 6,37.7531378647,128.8917699042,https://m.place.naver.com/restaurant/749351147/review/visitor?entry=ple&reviewSort=recent,,,TourAPI,1.0,41.0,42.0,Historical architecture; Aesthetic design,
강릉 경포대,1675156043,경포대는 소나무 숲과 벚나무가 어우러진 경포호와 경포해수욕장을 감상할 수 있는 곳입니다.,관광지,호텔,강원특별자치도 강릉시 경포로 365(저동),37.7955691591,128.8965126086,https://m.place.naver.com/restaurant/1675156043/review/visitor?entry=ple&reviewSort=recent,,,TourAPI,9323.0,11948.0,21271.0,Pet-friendly; Scenic views; Comfortable rooms; Beach proximity; Delicious breakfast,Noise; Plastic cups; Crowded
강릉 선교장,11687693,선교장은 조선시대 상류층 가옥으로 연못 위 활래정 정자가 있는 아름다운 곳입니다.,관광지,국가유산,강원특별자치도 강릉시 운정길 63(운정동),37.7865588677,128.8850778068,https://m.place.naver.com/restaurant/11687693/review/visitor?entry=ple&reviewSort=recent,"성인: 5,000원 | 청소년: 3,000원 | 어린이: 2,000원 | 성인(30명이상단체): 4,000원",,TourAPI,502.0,2210.0,2712.0,Cultural significance; Scenic surroundings; Historical preservation; Peaceful atmosphere; Convenient facilities,Inconvenient facilities; High admission fee; Humidity
안목해변,13491906,안목해변은 커피거리와 함께 바다뷰를 즐길 수 있는 500m 길이의 백사장입니다.,관광지,"해수욕장,해변",강원특별자치도 강릉시 창해로14번길 20-1,37.7726505813,128.9473504054,https://m.place.naver.com/restaurant/13491906/review/visitor?entry=ple&reviewSort=recent,,,TourAPI,695.0,9022.0,9717.0,Scenic views; Clean facilities; Relaxing atmosphere; Water activities; Well-equipped restrooms,
오대산 소금강계곡,13491923,청학동 소금강은 기암괴석과 울창한 숲이 어우러진 경관이 뛰어난 곳입니다.,관광지,계곡,강원특별자치도 강릉시 연곡면 삼산리,37.8306548995,128.6576247467,https://m.place.naver.com/restaurant/13491923/review/visitor?entry=ple&reviewSort=recent,,,TourAPI,26.0,408.0,434.0,Scenic views; Refreshing water; No entrance fee; Good for swimming; Abundant wildlife,Insect nuisance
경포호,13491109,"경포호는 겨울 철새도래지로 유명하며, 경포대에서 바라보는 달빛이 아름다운 곳입니다.",관광지,"호수,연못,저수지",강원특별자치도 강릉시 경포로 365,37.7956108224,128.896568157,https://m.place.naver.com/restaurant/13491109/review/visitor?entry=ple&reviewSort=recent,,,TourAPI,208.0,2976.0,3184.0,Scenic views; Walking paths; Rest areas; Wildlife observation; Art installations,Ongoing construction
옥계해변,13444970,"옥계해변은 깨끗한 백사장과 송림, 맑은 물빛이 돋보이며 캠핑도 즐길 수 있는 곳입니다.",관광지,"해수욕장,해변",강원특별자치도 강릉시 옥계면 금진솔밭길 104-32,37.6280637014,129.0480708236,https://m.place.naver.com/restaurant/13444970/review/visitor?entry=ple&reviewSort=recent,,,TourAPI,18.0,334.0,352.0,Beautiful beach; Quiet atmosphere; Delicious food; Surfing activities; Restroom availability,Restrictive policies; Lack of shade; Poor signage; Unwelcoming atmosphere
강릉 복사꽃마을,12390002,"복사꽃 마을은 과수원길 걷기와 복사꽃축제, 허수아비축제가 열리는 청정마을입니다.",관광지,체험마을,강원특별자치도 강릉시 신리천로 527-3 복사꽃정보마을센타,37.8801348222,128.7773762919,https://m.place.naver.com/restaurant/12390002/review/visitor?entry=ple&reviewSort=recent,"과일따기 체험: 28,000원 | 복숭아 전병만들기: 5,000원 | 동해바다 봄체험: 15,000원",,TourAPI,6.0,159.0,165.0,Orchards; Quiet atmosphere; Fragrant peaches; Scenic views; Peach trees,
강릉 한울타리마을,1378194684,"북동 마을은 안개와 구름 속에서 도예와 공예체험, 서바이벌 게임을 즐길 수 있는 곳입니다.",관광지,체험마을,강원특별자치도 강릉시 옥계면 북동용소길 137,37.6128390281,128.9747778772,https://m.place.naver.com/restaurant/1378194684/review/visitor?entry=ple&reviewSort=recent,,,TourAPI,311.0,57.0,368.0,Comfortable accommodations; Family-friendly environment; Clean facilities; Child safety; Delicious food,
모래시계공원,11620713,"모래시계공원은 세계 최대 모래시계와 소나무, 해수욕장이 어우러진 곳입니다.",관광지,"도시,테마공원",강원특별자치도 강릉시 강동면 헌화로 990-1,37.687167782,129.0375504951,https://m.place.naver.com/restaurant/11620713/review/visitor?entry=ple&reviewSort=recent,,,TourAPI,58.0,1127.0,1185.0,Train museum; Scenic views; Unique exhibits; Relaxing atmosphere; Photo spot,Obstructive structures; Crowded; Limited attractions
사근진해변,15371716,"사근진해변은 넓은 백사장과 소나무 숲, 편리한 편의시설이 있는 아름다운 해변입니다.",관광지,"해수욕장,해변",강원특별자치도 강릉시 해안로604번길 16,37.8127616594,128.8988285332,https://m.place.naver.com/restaurant/15371716/review/visitor?entry=ple&reviewSort=recent,,,TourAPI,151.0,2957.0,3108.0,Relaxing atmosphere; Scenic beauty; Water activities; Nearby amenities; Ample parking,Sparse flower fields
영진해변,13491150,영진 해수욕장은 어촌 마을의 매력과 방파제에서의 드라마 촬영지로 유명한 곳입니다.,관광지,"해수욕장,해변",강원특별자치도 강릉시 연곡면 해안로 1445-1,37.8686430389,128.8455927126,https://m.place.naver.com/restaurant/13491150/review/visitor?entry=ple&reviewSort=recent,,,TourAPI,115.0,1952.0,2067.0,Cleanliness; Scenic views; Beach amenities; Comfortable water; Safety,Unfriendly staff; Parasol restrictions
정동진해변,11491778,정동진역 앞 해변은 조개 채취와 해돋이 감상이 가능한 인기 해수욕장입니다.,관광지,"해수욕장,해변",강원특별자치도 강릉시 강동면 정동역길 17,37.6914144167,129.032603586,https://m.place.naver.com/restaurant/11491778/review/visitor?entry=ple&reviewSort=recent,,,TourAPI,128.0,1330.0,1458.0,Scenic views; Clear water; Clean sand; Variety of attractions; Peaceful atmosphere,
경포해수욕장,12079976,경포대 해변은 울창한 송림과 1.8㎞ 백사장에서 해수욕과 산림욕을 즐길 수 있는 곳입니다.,관광지,"해수욕장,해변",강원특별자치도 강릉시 창해로 514 (안현동),37.8058292968,128.9074668585,https://m.place.naver.com/restaurant/12079976/review/visitor?entry=ple&reviewSort=recent,,,TourAPI,783.0,11166.0,11949.0,Cleanliness; Scenic views; Well-maintained facilities; Free amenities; Water activities,Closed facilities; Deep water for children
강릉 수리골 고택,20066249,경포호수 인근 전통 한옥으로 팔작지붕과 툇마루가 있는 ㄱ자형 사랑채가 특징입니다.,관광지,국가유산,강원특별자치도 강릉시 운정길 125(운정동),37.7862090263,128.8911356052,https://m.place.naver.com/restaurant/20066249/review/visitor?entry=ple&reviewSort=recent,,,TourAPI,2.0,11.0,13.0,Complimentary water; Cold noodles; Delicious food,
썬크루즈 테마공원,474291808,썬크루즈 리조트는 절벽 위 유람선 형태로 조각 공원과 열차 카페가 있는 명소입니다.,관광지,"도시,테마공원",강원특별자치도 강릉시 강동면 헌화로 950-39(강동면),37.6835710624,129.0420113165,https://m.place.naver.com/restaurant/474291808/review/visitor?entry=ple&reviewSort=recent,,,TourAPI,2048.0,72.0,2120.0,Scenic views; Delicious food; Tasty beverages; Sunset experience; Variety of dishes,Admission fee
주문리마을,20059236,"주문리마을은 신선한 해산물과 배호 노래비, 아들바위 등 다양한 볼거리가 있는 곳입니다.",관광지,체험마을,강원특별자치도 강릉시 주문진읍 주문로 102주문리마을,37.8928732039,128.8271158504,https://m.place.naver.com/restaurant/20059236/review/visitor?entry=ple&reviewSort=recent,,,TourAPI,17.0,6.0,23.0,Friendly service,
주문진 등대,20054507,주문진등대는 백색 석회 몰타르로 칠해진 10m 높이의 역사적인 등대입니다.,관광지,등대,강원특별자치도 강릉시 주문진읍 옛등대길 24-7,37.8976727775,128.8337873208,https://m.place.naver.com/restaurant/20054507/review/visitor?entry=ple&reviewSort=recent,,,TourAPI,28.0,446.0,474.0,Scenic view; Cultural significance; Architectural heritage; Interactive exhibits; Photography,
영진항,20054445,"영진마을은 연곡천 하류에 위치하며, 연곡해수욕장과 영진해수욕장이 인기입니다.",관광지,항구,강원특별자치도 강릉시 연곡면 해안로 1419,37.8674293316,128.8477314457,https://m.place.naver.com/restaurant/20054445/review/visitor?entry=ple&reviewSort=recent,,,TourAPI,12.0,172.0,184.0,Cultural significance; Scenic views; Variety of fish; Unique landscape; Peaceful atmosphere,
소돌아들바위공원,19501415,주문진 소돌아들바위공원은 기암괴석과 코끼리바위 등 독특한 바위들이 있는 곳입니다.,관광지,테마공원,강원특별자치도 강릉시 주문진읍 해안로 1976,37.9058217388,128.8289402834,https://m.place.naver.com/restaurant/19501415/review/visitor?entry=ple&reviewSort=recent,,,TourAPI,81.0,1859.0,1940.0,Scenic beauty; Photography opportunities; Water activities; Relaxing atmosphere; Sunrise views,Crowded; Restricted access
주문진항,13490946,주문진항은 싱싱한 해산물과 저렴한 회를 즐길 수 있는 동해안 최대 어시장입니다.,관광지,항구,강원특별자치도 강릉시 주문진읍 해안로 1758-22,37.8876433088,128.829901872,https://m.place.naver.com/restaurant/13490946/review/visitor?entry=ple&reviewSort=recent,,,TourAPI,41.0,2137.0,2178.0,Friendly service; Scenic views; Fresh seafood; Delicious food; Affordable prices,
임해자연휴양림,13068554,푸른 동해와 괘방산의 절경 속 삼림욕과 해돋이 감상이 가능한 휴양림입니다.,관광지,"휴양림,산림욕장",강원특별자치도 강릉시 강동면 율곡로 1715-85,37.7186189405,128.99857247,https://m.place.naver.com/restaurant/13068554/review/visitor?entry=ple&reviewSort=recent,,,TourAPI,30.0,268.0,298.0,Scenic views; Well-maintained trails; Relaxing atmosphere; Equipped kitchen; Clean air,Obstructed views; Lack of amenities; Small room size; Limited smoking areas; Low water pressure
강릉 솔향수목원,19564244,강릉솔향수목원은 금강소나무와 다양한 테마 공간이 어우러진 자연 치유의 명소입니다.,관광지,"식물원,수목원",강원특별자치도 강릉시 구정면 수목원길 156,37.6979158879,128.8617409792,https://m.place.naver.com/restaurant/19564244/review/visitor?entry=ple&reviewSort=recent,,,TourAPI,67.0,1365.0,1432.0,Children's activities; Scenic views; Free services; Nature experience; Well-maintained facilities,
강릉커피거리,20947876,안목 카페거리는 다양한 개성의 커피와 디저트를 맛볼 수 있는 커피 명소입니다.,관광지,"거리,골목",강원특별자치도 강릉시 창해로14번길 20-1,37.7726505813,128.9473504054,https://m.place.naver.com/restaurant/20947876/review/visitor?entry=ple&reviewSort=recent,,,TourAPI,40.0,1909.0,1949.0,Scenic views; Variety of cafes; High-quality coffee; Relaxing atmosphere; Photo spots,Limited meal options; Loss of reputation
정감이마을,37031400,"정감이마을은 감 체험과 공예, 먹거리 체험이 다양한 농촌 체험 마을입니다.",관광지,체험마을,강원특별자치도 강릉시 강동면 둔지길 81,37.7168821954,128.9558541452,https://m.place.naver.com/restaurant/37031400/review/visitor?entry=ple&reviewSort=recent,,,TourAPI,13.0,5.0,18.0,Scenic beauty; Engaging activities; Excellent facilities; Friendly staff,
강릉 월화거리,1287320440,"남대천 월화정 설화는 사랑의 성지로, 월화거리에서 사랑 이야기를 느낄 수 있는 곳입니다.",관광지,문화거리,강원특별자치도 강릉시 금성로11번길 9,37.7559015445,128.8974470859,https://m.place.naver.com/restaurant/1287320440/review/visitor?entry=ple&reviewSort=recent,,,TourAPI,46.0,1293.0,1339.0,Casual visits; Small performances; Scenic area; Unique items; Diverse food,Limited seating
국립대관령치유의숲,269545324,금강소나무숲 속 무장애 데크로드와 금강송전망대에서 치유와 경관을 즐길 수 있는 곳입니다.,관광지,산림청,강원특별자치도 강릉시 성산면 대관령옛길 127-42(어흘리),37.7080690523,128.7990518679,https://m.place.naver.com/restaurant/269545324/review/visitor?entry=ple&reviewSort=recent,"개인(20인미만)/시간: 5,000원 | 단체(20인 이상)/시간: 4,000원",,TourAPI,20.0,176.0,196.0,Scenic views; Well-maintained paths; Healing atmosphere; Equipment rental; Peaceful environment,Limited deck availability; Insufficient signage; Limited rest areas
강릉 대도호부 관아,15685783,강릉 대도호부 관아는 고려시대 건축물인 객사문이 남아있는 역사적 유적지입니다.,관광지,국가유산,강원특별자치도 강릉시 임영로131번길 6,37.7532767444,128.8921226461,https://m.place.naver.com/restaurant/15685783/review/visitor?entry=ple&reviewSort=recent,,,TourAPI,32.0,1230.0,1262.0,Beautiful scenery; Cultural value; Variety of activities; Well-maintained facilities; Historical significance,
허난설헌 생가터,20066218,"허난설헌 생가터는 솔숲 속 전형적 한옥으로, 허균·허난설헌 기념관과 공원이 있습니다.",관광지,국가유산,강원특별자치도 강릉시 난설헌로193번길 1-16(초당동),37.791928171,128.909675424,https://m.place.naver.com/restaurant/20066218/review/visitor?entry=ple&reviewSort=recent,,,TourAPI,28.0,461.0,489.0,Scenic trails; Guided tours; Relaxing atmosphere; Family-friendly; Historical significance,
버드나무 브루어리,37090227,"버드나무 브루어리는 쌀, 국화, 솔잎 등으로 만든 강릉맥주를 맛볼 수 있는 곳입니다.",관광지,"맥주,호프",강원특별자치도 강릉시 경강로 1961(홍제동),37.7482771734,128.8844734896,https://m.place.naver.com/restaurant/37090227/review/visitor?entry=ple&reviewSort=recent,,,TourAPI,3105.0,2496.0,5601.0,Delicious food; Craft beer; Pleasant aroma; Friendly staff; Atmosphere,Limited bar seating; High prices; Misleading dish names
강릉 명주동 거리,1249952785,"명주동은 문화예술 공간과 이색 카페, 벽화로 가득한 골목길이 매력적인 곳입니다.",관광지,카페,강원특별자치도 강릉시 명주동,37.7511381142,128.8927254362,https://m.place.naver.com/restaurant/1249952785/review/visitor?entry=ple&reviewSort=recent,,,TourAPI,41.0,3.0,44.0,Unique desserts; Pleasant atmosphere; Delicious ice cream; Friendly service; Variety of beverages,
주문진bts,1154013651,BTS 앨범 촬영지인 주문진 해변의 포토존은 팬들에게 인기 있는 명소입니다.,관광지,촬영장소,강원특별자치도 강릉시 주문진읍 향호리,37.9125457281,128.8170522589,https://m.place.naver.com/restaurant/1154013651/review/visitor?entry=ple&reviewSort=recent,,,TourAPI,37.0,991.0,1028.0,Scenic beauty; Cultural significance; Thematic decor; Popularity; International tourists,Crowdedness
뒷뜨루관광농원,1117620826,"뒷뜨루관광농원은 온실정원과 빛의 동굴, 먹이체험 공간이 있는 매력적인 장소입니다.",관광지,"관광농원,팜스테이",강원특별자치도 강릉시 사천면 청솔공원길 108,37.8353717256,128.8370445153,https://m.place.naver.com/restaurant/1117620826/review/visitor?entry=ple&reviewSort=recent,"성인 (14세~19세이상): 5,000원 | 아동 (12개월~만12세): 4,000원 | 그림그리기(부체): 4,000원 | 단체 20명 이상 (20% 현장할인): 변동",,TourAPI,1438.0,673.0,2111.0,Beautiful scenery; Animal interaction; Art exhibitions; Family-friendly; Well-maintained,
초당순두부마을,31506191,강릉 초당순두부마을은 부드러운 순두부와 벽화로 두부 제작 과정을 즐길 수 있는 곳입니다.,관광지,먹자거리,강원특별자치도 강릉시 강문동146-35,37.7945529812,128.9155275928,https://m.place.naver.com/restaurant/31506191/review/visitor?entry=ple&reviewSort=recent,,,TourAPI,3.0,537.0,540.0,Quality food,Early closing time
경포 아쿠아리움,37434460,"경포아쿠아리움은 수달과 대형어류, 피딩쇼 등 다양한 체험을 제공하는 곳입니다.",관광지,아쿠아리움,"강원특별자치도 강릉시 난설헌로 131(초당동, 강릉녹색도시 체험센터)",37.79008946,128.9079034181,https://m.place.naver.com/restaurant/37434460/review/visitor?entry=ple&reviewSort=recent,"성인: 20,000원 | 청소년: 18,000원 | 어린이: 16,000원 | 연간회원권: 70,000원",,TourAPI,8900.0,1594.0,10494.0,Diverse marine life; Family-friendly; Interactive experiences; Well-maintained facilities; Cost-effective,Limited marine life; Small size
강릉 안목해맞이공원,939463951,"안목해맞이공원은 해변과 연결된 일출 명소로, 포토존과 벤치, 공연 무대가 있는 곳입니다.",관광지,"도시,테마공원",강원특별자치도 강릉시 견소동287-6,37.7743308995,128.9451477738,https://m.place.naver.com/restaurant/939463951/review/visitor?entry=ple&reviewSort=recent,,,TourAPI,57.0,55.0,112.0,Scenic views; Clean beach; Relaxing atmosphere; Live music; Well-maintained facilities,
수상한마법학교,37081677,"강릉 수상한 마법학교는 체험, 전시, 공연을 통해 특별한 마법 경험을 제공하는 곳입니다.",관광지,"관람,체험",강원특별자치도 강릉시 범일로 476 (내곡동),37.7305013481,128.8791661828,https://m.place.naver.com/restaurant/37081677/review/visitor?entry=ple&reviewSort=recent,"일반 통합권: 19,000원 | 네이버 예약 통합권: 18,000원 | 36개월 미만: 5,000원 | 강원도민 할인: 17,000원",,TourAPI,2423.0,282.0,2705.0,Engaging performances; Family-friendly; Interactive experiences; Educational value; Photo opportunities,Short performance
경포가시연습지,31044854,경포가시연습지는 연꽃과 가시연을 감상하고 조류 관찰을 즐길 수 있는 생태 습지입니다.,관광지,"자연,생태공원",강원특별자치도 강릉시 운정동643,37.7894615748,128.8986792689,https://m.place.naver.com/restaurant/31044854/review/visitor?entry=ple&reviewSort=recent,,,TourAPI,41.0,823.0,864.0,Family-friendly; Scenic beauty; Lotus flowers; Walking paths; Relaxing atmosphere,Lack of flowers; Lack of views
강문솟대다리,1940124735,강문솟대다리는 강문 해변과 경포 해변을 연결하는 바다 위의 독특한 다리입니다.,관광지,지역명소,강원특별자치도 강릉시 해안로406번길 2 (강문동),37.7985635711,128.9126221751,https://m.place.naver.com/restaurant/1940124735/review/visitor?entry=ple&reviewSort=recent,,,TourAPI,40.0,157.0,197.0,Scenic views; Quiet atmosphere; Unique experience; Relaxing atmosphere; Good for walking,
호린파크(경포대허브농장),1261782152,호반파크는 핑크뮬리와 바다 전망의 허브정원과 갤러리카페가 있는 곳입니다.,관광지,지역명소,강원특별자치도 강릉시 사천면 해안로 1119-51,37.8444934488,128.8656527627,https://m.place.naver.com/restaurant/1261782152/review/visitor?entry=ple&reviewSort=recent,,,TourAPI,215.0,446.0,661.0,Scenic views; Aesthetic appeal; Spaciousness; Well-maintained facilities; Photogenic spots,Limited space; Poor coffee quality; Limited attractions; Wilted flowers; Overpriced admission
강릉항,15692195,강릉 송정동 항구는 백사장과 풍부한 어종으로 낚시와 해산물 조업에 적합한 곳입니다.,관광지,국가어항,강원특별자치도 강릉시 창해로14번길 55-11,37.7714035891,128.9517472703,https://m.place.naver.com/restaurant/15692195/review/visitor?entry=ple&reviewSort=recent,,,TourAPI,15.0,967.0,982.0,Quiet atmosphere; Walking paths; Scenic views; Leisure activities,Lack of nighttime atmosphere
르꼬따쥬,1300520912,강릉의 르꼬따쥬는 한옥 정원에서 차와 자연을 즐기며 사진 찍기 좋은 곳입니다.,관광지,"관광농원,팜스테이",강원특별자치도 강릉시 한밭골길 50-11(대전동),37.7875861221,128.8643296445,https://m.place.naver.com/restaurant/1300520912/review/visitor?entry=ple&reviewSort=recent,,,TourAPI,1146.0,409.0,1555.0,Friendly service; Tasty beverages; Pet-friendly; Private atmosphere; Beautiful space,Lack of privacy; Intrusive staff; Unprofessional management
금진항(강릉),1206536601,금진항은 심곡항과 금진항 사이의 헌화로가 아름다운 해안도로로 유명한 곳입니다.,관광지,편의점,강원특별자치도 강릉시 옥계면 금진리,37.6526359384,129.0518502796,https://m.place.naver.com/restaurant/1206536601/review/visitor?entry=ple&reviewSort=recent,,,TourAPI,14.0,,14.0,Friendly service; Convenience; Diverse products; Trendy products; Coffee machine,Expired product
허균·허난설헌 기념공원,1130774967,허균·허난설헌 기념공원은 소나무 숲과 전통차 체험관이 있는 휴식처입니다.,관광지,"유적지,사적지",강원특별자치도 강릉시 난설헌로193번길 1-16 (초당동)(허난설헌생가),37.7917948539,128.9097365341,https://m.place.naver.com/restaurant/1130774967/review/visitor?entry=ple&reviewSort=recent,,,TourAPI,74.0,1320.0,1394.0,Scenic beauty; Cultural significance; Historical significance; Family-friendly; Well-maintained facilities,
경포플라워가든,1063021154,경포 플라워가든은 경포호수와 함께 맨발로 걸으며 꽃과 자연을 만끽할 수 있는 곳입니다.,관광지,부속시설,강원특별자치도 강릉시 초당동 459-28(초당동),37.7979885609,128.9086892141,https://m.place.naver.com/restaurant/1063021154/review/visitor?entry=ple&reviewSort=recent,,,TourAPI,2.0,11.0,13.0,Lotus viewing; Scenic walking area; Flower garden,
쌍둥이동물농장,37869673,쌍둥이동물농장은 63종 동물 관람과 먹이주기 체험이 가능한 강릉의 소규모 동물원입니다.,관광지,동물원,강원특별자치도 강릉시 옥계면 천남길 134-2,37.5972641659,129.0320482135,https://m.place.naver.com/restaurant/37869673/review/visitor?entry=ple&reviewSort=recent,"사료통: 2,000원 | 젖소우유체험-한정판매: 2,000원 | 20개월 이상 1인 입장권: 9,000원",,TourAPI,2156.0,1683.0,3839.0,Animal variety; Affordable admission; Clean facilities; Interactive feeding; Family-friendly,Underfed cows
대관령아기동물농장,35372537,대관령아기동물농장은 다양한 동물과 교감하며 먹이 주기 체험을 즐길 수 있는 곳입니다.,관광지,동물원,강원특별자치도 강릉시 사천면 송암골길 197-13,37.7976676101,128.8294713643,https://m.place.naver.com/restaurant/35372537/review/visitor?entry=ple&reviewSort=recent,"체험비 (강릉알파카+아기동물): 15,000원 | 동물먹이(사료+건초): 무료 | 송아지 우유주기 체험: 3,000원",,TourAPI,1075.0,1038.0,2113.0,Animal interaction; Cleanliness; Family-friendly; Educational experience; Friendly staff,Admission price
강릉아트센터,1550291849,강릉아트센터는 공연장과 전시실에서 다양한 예술 체험과 교육 프로그램을 즐길 수 있는 곳입니다.,관광지,"문화,예술회관",강원특별자치도 강릉시 종합운동장길 84,37.7716996777,128.8954273345,https://m.place.naver.com/restaurant/1550291849/review/visitor?entry=ple&reviewSort=recent,,,TourAPI,36.0,489.0,525.0,Coffee quality; Pleasant aroma; Quick drinks; Art exhibition,Insufficient seating
정동진조각공원,13351605,"정동진조각공원은 해안 조망과 다양한 조각 작품, 포토존이 매력적인 곳입니다.",관광지,테마공원,강원특별자치도 강릉시 강동면 헌화로 950-39,37.6820268345,129.0439806318,https://m.place.naver.com/restaurant/13351605/review/visitor?entry=ple&reviewSort=recent,"대인: 5,000원 | 소인: 3,000원",,TourAPI,82.0,408.0,490.0,Scenic views; Photography spots; Relaxing atmosphere; Walking-friendly; Aesthetic appeal,Limited transportation; Restricted access
경포생태저류지,1346656418,경포생태저류지는 유채꽃과 코스모스가 아름답고 철새 관찰이 가능한 산책 명소입니다.,관광지,"강,하천",강원특별자치도 강릉시 죽헌길 165 (죽헌동),37.7798679233,128.8824032549,https://m.place.naver.com/restaurant/1346656418/review/visitor?entry=ple&reviewSort=recent,,,TourAPI,21.0,654.0,675.0,Scenic views; Tranquil atmosphere; Accessibility; Pet-friendly; Wildlife observation,Construction disturbance; Limited access; Crowded atmosphere; Sparse environment
명주예술마당,38623679,"명주예술마당은 다양한 예술 공방과 공연장, 연습실을 갖춘 복합문화공간입니다.",관광지,복합문화공간,강원특별자치도 강릉시 경강로2021번길 9-1 명주예술마당,37.7504520359,128.8903006749,https://m.place.naver.com/restaurant/38623679/review/visitor?entry=ple&reviewSort=recent,,,TourAPI,13.0,423.0,436.0,Art exhibitions; Magic show; Outdoor pavilion; Local artists; Family-friendly,
순포해변,20103328,모래질이 좋고 수심이 얕아 물놀이에 적합하며 송림과 한적한 바다가 매력적인 해변입니다.,관광지,"해수욕장,해변",강원특별자치도 강릉시 사천면 해안로 722,37.8193190673,128.8902985428,https://m.place.naver.com/restaurant/20103328/review/visitor?entry=ple&reviewSort=recent,,,TourAPI,19.0,127.0,146.0,Tranquil environment; Scenic views; Cleanliness; Cool water; Resting facilities,Sudden deep water; Lack of facilities
소돌해수욕장,13491657,"소돌해변은 완만한 경사의 백사장과 소나무숲 야영장이 있으며, 조개잡이도 가능한 곳입니다.",관광지,"해수욕장,해변",강원특별자치도 강릉시 주문진읍 해안로 1993,37.9062383246,128.8272654209,https://m.place.naver.com/restaurant/13491657/review/visitor?entry=ple&reviewSort=recent,,,TourAPI,78.0,786.0,864.0,Scenic views; Tranquil atmosphere; Child-friendly; Clean water; Seafood restaurants,Restricted access
순포습지,1884028346,순포호는 조류관찰대와 다양한 철새를 볼 수 있는 생태관광의 명소입니다.,관광지,"호수,연못,저수지",강원특별자치도 강릉시 사천면 해안로 741-5,37.8201661571,128.8885597849,https://m.place.naver.com/restaurant/1884028346/review/visitor?entry=ple&reviewSort=recent,,,TourAPI,9.0,191.0,200.0,Tranquil environment; Scenic views; Natural surroundings; Well-maintained paths; Plant variety,Inadequate paths; Limited attractions
해피아워크루즈,1600054868,"주문진항 해피아워크루즈는 3층 구조로, 야외 전망대와 라이브 공연을 즐길 수 있는 곳입니다.",관광지,"유람선,관광선",강원특별자치도 강릉시 주문진읍 해안로 1730,37.8895791714,128.828660257,https://m.place.naver.com/restaurant/1600054868/review/visitor?entry=ple&reviewSort=recent,"야간출항(소인)36개월이상 미성년자: 30,000원 | 야간출항(대인): 35,000원 | 주간출항(소인) 36개월이상 미성년자: 15,000원 | 주간출항(대인): 20,000원",,TourAPI,1015.0,870.0,1885.0,Family-friendly; Scenic views; Entertainment shows; Pleasant atmosphere; Magic shows,Limited performances
강릉아기동물농장,1848252796,사천해변 인근 강릉아기동물농장은 다양한 동물과 교감하고 다육식물도 얻을 수 있는 곳입니다.,관광지,"관람,체험",강원특별자치도 강릉시 사천면 해안로 1121-144,37.8462598232,128.8611225614,https://m.place.naver.com/restaurant/1848252796/review/visitor?entry=ple&reviewSort=recent,"농장 이용요금: 7,000원 | 20개월미만: 무료",,TourAPI,121.0,163.0,284.0,Animal interaction; Cleanliness; Friendly staff; Complimentary gifts; Affordable admission,Lack of cleanliness; Inability to feed horses; Small size
사근진 해중공원 전망대,1338629806,"사근진 해중공원 전망대는 천사 날개 모양으로, 에메랄드빛 해변과 알록달록 테트라포드가 인상적입니다.",관광지,전망대,강원특별자치도 강릉시 해안로604번길 16,37.8127616594,128.8988285332,https://m.place.naver.com/restaurant/1338629806/review/visitor?entry=ple&reviewSort=recent,,,TourAPI,40.0,313.0,353.0,Scenic views; Photography opportunities; Water activities; Unique attractions; Romantic atmosphere,Limited attractions
리고엠,1775014582,강릉 리고엠에서 퀼트 체험과 경포해수욕장 관광을 즐길 수 있는 프로그램입니다.,관광지,공방,강원특별자치도 강릉시 솔올로5번길 513층,37.7641862993,128.8770014492,https://m.place.naver.com/restaurant/1775014582/review/visitor?entry=ple&reviewSort=recent,,,TourAPI,22.0,10.0,32.0,Friendly service; Beautiful products; High-quality results; Engaging activity; Well-structured classes,
원더스카이,1542622512,원더스카이는 강릉 경포대 인근에 위치한 어린이 종합 실내 놀이공원입니다.,관광지,테마파크,강원특별자치도 강릉시 난설헌로 248,37.7939030514,128.915274858,https://m.place.naver.com/restaurant/1542622512/review/visitor?entry=ple&reviewSort=recent,"키즈존 기본 2시간 (키130cm 미만): 18,000원 | 키즈존 기본 2시간 (24개월 미만): 11,000원 | 어트랙션존 2시간 어린이/청소년 (키 120cm 이상): 27,000원 | 어트랙션존 2시간 성인: 30,000원",,TourAPI,1748.0,449.0,2197.0,Child-friendly; Indoor activities; Safety measures; Clean environment; Exciting attractions,High cost; Long waiting time; Lack of water facilities; Time management issues; Scary rides
강릉안반데기관광농원,1109407473,"강릉안반데기관광농원은 산나물 채취, 치유숲길 트레킹, 별보기 캠핑이 가능한 곳입니다.",관광지,"관람,체험",강원특별자치도 강릉시 안반데기1길 203,37.6087932748,128.7400518871,https://m.place.naver.com/restaurant/1109407473/review/visitor?entry=ple&reviewSort=recent,"안반데기 별보기 체험 차박: 60,000원 | 산나물(산마늘,눈개승마,오가피,두릅): 30,000원 | 안반데기 치유 나들이-관광,견학,교육: 15,000원",,TourAPI,12.0,278.0,290.0,Friendly staff; Cleanliness,
향호해변,15698326,"향호해변은 BTS 앨범 촬영지로 유명하며, 소나무 숲과 바다를 배경으로 사진을 찍기 좋은 곳입니다.",관광지,"해수욕장,해변",강원특별자치도 강릉시 주문진읍 주문북로 222-30(향호리),37.9114458716,128.8178827738,https://m.place.naver.com/restaurant/15698326/review/visitor?entry=ple&reviewSort=recent,,,TourAPI,19.0,518.0,537.0,Iconic location; Quiet atmosphere; Clean environment; Scenic forest; Safe swimming,Restrictive regulations; Inadequate management
런닝맨 강릉점,1112785467,강릉 런닝맨 빙고레이스는 20여 가지 게임과 강문해수욕장을 함께 즐길 수 있는 곳입니다.,관광지,테마파크,강원특별자치도 강릉시 창해로 307 세인트존스 호텔파인동 2층,37.7911618243,128.9215243801,https://m.place.naver.com/restaurant/1112785467/review/visitor?entry=ple&reviewSort=recent,"런닝맨 1인권(대소공통): 19,000원 | 뮤즈 (대/소공통): 10,000원 | 런닝맨+뮤즈 패키지권: 24,000원",,TourAPI,7779.0,1034.0,8813.0,Family-friendly; Variety of activities; Challenging missions; Interactive games; Clean environment,Equipment issues; Challenging for children; Facility maintenance
강릉 남산공원,15693581,강릉 남산공원은 숲속 산책로와 오성정 정자가 있는 아름다운 문화공간입니다.,관광지,근린공원,강원특별자치도 강릉시 노암동740-1,37.7480551515,128.8934282457,https://m.place.naver.com/restaurant/15693581/review/visitor?entry=ple&reviewSort=recent,,,TourAPI,26.0,586.0,612.0,Scenic beauty; Spacious lawn; Aerobic exercise; Well-lit; Peaceful atmosphere,Reduced activities
풍호마을,13126966,"풍호마을 연꽃 축제는 연꽃단지와 다양한 식물, 먹거리와 이벤트가 풍성한 축제입니다.",관광지,체험마을,강원특별자치도 강릉시 강동면 하시동리1300,37.7385796614,128.9545174824,https://m.place.naver.com/restaurant/13126966/review/visitor?entry=ple&reviewSort=recent,,,TourAPI,16.0,158.0,174.0,Aquatic plants; Lotus flowers; Cultural festival; Photo opportunities; Scenic beauty,Limited lotus flowers
병산 옹심이마을,1243747688,"강릉 병산 옹심이마을은 다양한 스타일의 감자옹심이와 감자전, 닭발을 즐길 수 있는 곳입니다.",관광지,편의점,강원특별자치도 강릉시 병산동,37.7630515692,128.9410651576,https://m.place.naver.com/restaurant/1243747688/review/visitor?entry=ple&reviewSort=recent,,,TourAPI,46.0,34.0,80.0,Convenience; Friendly service; Clean display,
강릉 방동리 무궁화,2145408639,강릉 방동리에는 122살의 천연기념물 무궁화와 신라시대 옛집이 보존되어 있습니다.,관광지,기념물,강원특별자치도 강릉시 사천면 가마골길 22-8,37.8274342795,128.8639367794,https://m.place.naver.com/restaurant/2145408639/review/visitor?entry=ple&reviewSort=recent,,,TourAPI,2.0,4.0,6.0,Uncrowded; Pleasant scent; Scenic views; Tranquil,
애니멀스토리,35188457,애니멀스토리는 다양한 동물 체험과 해설사와 함께하는 교육적 경험을 제공하는 곳입니다.,관광지,동물원,강원특별자치도 강릉시 남부로163번길 14 (노암동),37.7442307,128.8988834279,https://m.place.naver.com/restaurant/35188457/review/visitor?entry=ple&reviewSort=recent,"입장료: 18,000원 | 24개월이하유아(무료): 무료 | 강릉시민입장료: 15,000원",,TourAPI,737.0,255.0,992.0,Interactive experiences; Friendly service; Informative explanations; Well-maintained; Family-friendly,Limited interaction
처음처럼&새로 브랜드 체험관,1412053208,"롯데칠성 강릉공장 내 체험관에서 제품 시음과 감금주, 병조명 만들기를 즐길 수 있습니다.",관광지,"관람,체험",강원특별자치도 강릉시 관솔길 7 (회산동),37.7407610809,128.8693139764,https://m.place.naver.com/restaurant/1412053208/review/visitor?entry=ple&reviewSort=recent,"현장예매불가/[투어+시음] 성인: 10,500원 | 현장예매불가/[투어+시음] 청소년: 7,700원 | 현장예매불가/[투어+시음] 어린이: 4,900원 | 현장예매불가/[투어+시음] 미취학: 무료",,TourAPI,2.0,290.0,292.0,Luxurious lounge; Interesting tour; Unique experience,Poor service; Commercialized atmosphere; Rude staff; Inadequate management
경포호수광장,472414455,"경포호수광장은 사계절 아름다운 경관과 산책로, 자전거 도로가 있는 명소입니다.",관광지,근린공원,강원특별자치도 강릉시 해안로 415 (초당동),37.7977913781,128.9095224784,https://m.place.naver.com/restaurant/472414455/review/visitor?entry=ple&reviewSort=recent,,,TourAPI,63.0,1076.0,1139.0,Scenic views; Walking trails; Beautiful tulips; Interactive booths; Colorful lighting,No pet access
강릉 메타버스 체험관,1881857549,강릉 메타버스 체험관은 경포호 옆에서 VR 기술로 미래를 체험할 수 있는 공간입니다.,관광지,"관람,체험",강원특별자치도 강릉시 난설헌로 131 (초당동),37.7879702339,128.906528608,https://m.place.naver.com/restaurant/1881857549/review/visitor?entry=ple&reviewSort=recent,,,TourAPI,21.0,216.0,237.0,Interactive experiences; Family-friendly; Good value; VR experience; Diverse programs,Unhelpful staff; Strict time management; Limited access; Unwelcoming atmosphere; Inefficient service
소금강,15707029,"소금강은 청담과 급류가 이어지는 계곡으로, 1569 율곡 유산길이 명소화된 곳입니다.",관광지,하천,강원특별자치도 강릉시 연곡면 소금강길 449,37.8164769727,128.7085511391,https://m.place.naver.com/restaurant/15707029/review/visitor?entry=ple&reviewSort=recent,,,TourAPI,2.0,140.0,142.0,Enjoyable foliage; Short bridge; Hiking opportunity; Scenic views,Parking cost
강문해변,13491183,강문해변은 수중경관이 뛰어나 스킨스쿠버와 수중 다이빙을 즐기기 좋은 곳입니다.,관광지,"해수욕장,해변",강원특별자치도 강릉시 창해로 352,37.7948530151,128.9190439335,https://m.place.naver.com/restaurant/13491183/review/visitor?entry=ple&reviewSort=recent,,,TourAPI,611.0,8275.0,8886.0,Family-friendly; Scenic views; Relaxing atmosphere; Variety of activities; Nearby cafes,Cold showers; Lack of shade; Inadequate restrooms
사천진해변(사천뒷불해수욕장),15704900,"사천진해변은 얕은 바다와 넓은 백사장이 있으며, 인근 사천항에서 신선한 해산물을 맛볼 수 있는 곳입니다.",관광지,"해수욕장,해변",강원특별자치도 강릉시 사천면 진리해변길 111,37.8412245725,128.8753492114,https://m.place.naver.com/restaurant/15704900/review/visitor?entry=ple&reviewSort=recent,,,TourAPI,2.0,19.0,21.0,Foot washing station; Private beach access; Moderate crowd; Beach amenities,
하평해변(강릉),1800696554,"하평리의 백사장과 해송 숲, 해다리바위가 있는 조용한 해변에서 민박과 회를 즐길 수 있습니다.",관광지,편의점,강원특별자치도 강릉시 사천면 진리해변길 167,37.8450351588,128.8710494811,https://m.place.naver.com/restaurant/1800696554/review/visitor?entry=ple&reviewSort=recent,,,TourAPI,363.0,2.0,365.0,Product variety; Friendly service; Scenic view; Cleanliness; Spaciousness,
순긋해변,13491745,"순긋해변은 얕은 수심과 무료주차장, 오토캠프장 등 다양한 편의시설이 있는 곳입니다.",관광지,"해수욕장,해변",강원특별자치도 강릉시 해안로 682-5(안현동),37.8168194119,128.8931261433,https://m.place.naver.com/restaurant/13491745/review/visitor?entry=ple&reviewSort=recent,,,TourAPI,36.0,818.0,854.0,Scenic beauty; Cleanliness; Friendly service; Relaxing environment; Cozy atmosphere,Short flower height
염전해변,15701732,강동면 안인2리의 간이해변은 낚시 애호가들이 즐기는 500m 백사장과 긴 방파제가 있는 곳입니다.,관광지,"해수욕장,해변",강원특별자치도 강릉시 강동면 염전길 171,37.741843737,128.983364785,https://m.place.naver.com/restaurant/15701732/review/visitor?entry=ple&reviewSort=recent,,,TourAPI,3.0,83.0,86.0,Delicious seafood; Scenic views,
금진해변,15703904,"금진 해변은 완만한 경사와 얕은 수심으로 가족에게 적합하며, 온천과 서핑을 즐길 수 있습니다.",관광지,"해수욕장,해변",강원특별자치도 강릉시 옥계면 헌화로 271,37.6395761724,129.043512544,https://m.place.naver.com/restaurant/15703904/review/visitor?entry=ple&reviewSort=recent,,,TourAPI,29.0,417.0,446.0,Surfing opportunities; Quiet beach; Scenic views; Nearby facilities; Safe environment,Jellyfish presence
도직해변,15703402,"도직해변은 깨끗한 모래와 넓은 주차장, 텐트 설치 가능한 야영장이 있는 해변입니다.",관광지,"해수욕장,해변",강원특별자치도 강릉시 옥계면 도직리,37.6093412454,129.0676585323,https://m.place.naver.com/restaurant/15703402/review/visitor?entry=ple&reviewSort=recent,,,TourAPI,4.0,15.0,19.0,Secluded beach; Public restroom,No showers; Few dining options
하슬라아트월드,11626644,"하슬라아트월드는 현대미술관, 피노키오박물관, 야외조각공원 등이 있는 복합문화공간입니다.",관광지,테마공원,강원특별자치도 강릉시 강동면 율곡로 1441,37.7065316769,129.0102329067,https://m.place.naver.com/restaurant/11626644/review/visitor?entry=ple&reviewSort=recent,"하슬라 관람권(성인): 17,000원 | 하슬라 관람권(청소년): 13,000원 | 하슬라 관람권(어린이): 11,000원 | 하슬라 플러스 관람권(성인 전용): 21,000원",,TourAPI,5741.0,6536.0,12277.0,Scenic views; Artistic installations; Photo opportunities; Family-friendly; Variety of exhibitions,Unfriendly staff
강릉 오죽헌·시립박물관,11620702,강릉 오죽헌·시립박물관은 율곡이이 유품과 신사임당 작품을 전시하는 명소입니다.,관광지,박물관,강원특별자치도 강릉시 율곡로3139번길 24 (죽헌동),37.7791929484,128.8796896318,https://m.place.naver.com/restaurant/11620702/review/visitor?entry=ple&reviewSort=recent,"어른: 3,000원 | 청소년, 군인: 2,000원 | 어린이: 1,000원",,TourAPI,1098.0,161.0,1259.0,Informative exhibits; Educational experience; Beautiful scenery; Interactive exhibits; Helpful staff,
단오타운전시관,12955259,강릉단오제 홍보전시실은 전통축제의 보호와 전승을 위한 중심 공간입니다.,관광지,공연장,강원특별자치도 강릉시 단오장길 1 (노암동),37.7482551607,128.8950697583,https://m.place.naver.com/restaurant/12955259/review/visitor?entry=ple&reviewSort=recent,,,TourAPI,3.0,310.0,313.0,Small venue; Intimate atmosphere,
강릉문화원,11535675,강릉문화원은 매년 7월 강릉대도호부 관아에서 다양한 공연과 체험을 제공하는 행사입니다.,관광지,문화원,강원특별자치도 강릉시 하슬라로 96 (교동),37.7587785298,128.8738463449,https://m.place.naver.com/restaurant/11535675/review/visitor?entry=ple&reviewSort=recent,"1층 공연장: 200,000~500,000원 | 1층 문화사랑방: 100,000~190,000원 | 3층 누리방: 100,000~190,000원 | 3층 나눔방: 50,000~100,000원",,TourAPI,34.0,103.0,137.0,Friendly service; Educational programs; Engaging performances; Family-friendly event; Value for money,
대관령박물관,20107994,"대관령 박물관은 고인돌 형태의 건물과 6개 전시실, 야외 전시장이 있는 곳입니다.",관광지,박물관,강원특별자치도 강릉시 성산면 대관령옛길 1,37.7167264799,128.8040011557,https://m.place.naver.com/restaurant/20107994/review/visitor?entry=ple&reviewSort=recent,"어른: 1,000원 | 청소년, 군인: 700원 | 어린이: 400원",,TourAPI,74.0,202.0,276.0,Beautiful surroundings; Family-friendly; Educational experience; Traditional clothing; Well-maintained facilities,
참소리에디슨손성목영화박물관,12409858,참소리박물관은 경포호 전망대와 3개 박물관을 한 번에 즐길 수 있는 곳입니다.,관광지,박물관,강원특별자치도 강릉시 경포로 393,37.7977800297,128.8973124673,https://m.place.naver.com/restaurant/12409858/review/visitor?entry=ple&reviewSort=recent,"성인: 18,000원 | 중고생(14세~19세): 12,000원 | 어린이(8세~13세): 9,000원 | 경로(만 65세 이상): 9,000원",,TourAPI,2081.0,534.0,2615.0,Educational experience; Informative exhibits; Knowledgeable guide; Engaging exhibits; Unique artifacts,Outdated facilities; Poor arrangement
정동진시간박물관,32794988,정동진시간박물관은 다양한 시계 작품과 대형 모래시계가 있는 독특한 전시관입니다.,관광지,박물관,강원특별자치도 강릉시 강동면 헌화로 990-1,37.6871261192,129.0375032783,https://m.place.naver.com/restaurant/32794988/review/visitor?entry=ple&reviewSort=recent,"성인 일반: 9,000원 | 성인 단체: 7,200원 | 청소년: 6,000원 | 청소년 단체: 4,800원",,TourAPI,2164.0,590.0,2754.0,Family-friendly; Educational exhibits; Extensive collection; Multimedia presentations; Diverse exhibits,Limited space; High admission fee; Inaccessible pathways
강릉자수박물관,19832807,"강릉자수박물관은 한국, 중국, 일본 전통 자수 500여 점을 상설 전시하는 곳입니다.",관광지,박물관,강원특별자치도 강릉시 죽헌길 140-12,37.7779681022,128.880303503,https://m.place.naver.com/restaurant/19832807/review/visitor?entry=ple&reviewSort=recent,"일반: 6,000원 | 초중고: 5,000원 | 유치원: 4,000원 | 일반(강릉시민): 5,000원",,TourAPI,179.0,95.0,274.0,Cultural insights; Friendly staff; Embroidery exhibits; Family-friendly; Interactive programs,Limited space
환희컵박물관,32268465,환희컵박물관은 AR 앱으로 전시된 컵과 상호작용하며 기념사진을 찍을 수 있는 곳입니다.,관광지,박물관,강원특별자치도 강릉시 해안로 10 (견소동),37.7745308366,128.9431257278,https://m.place.naver.com/restaurant/32268465/review/visitor?entry=ple&reviewSort=recent,"성인: 10,000원 | 중고생: 8,000원 | 유, 아동 / 초등생: 7,000원 | 성인 단체: 8,000원",,TourAPI,415.0,194.0,609.0,Unique exhibits; Informative tours; Art exhibitions; Interactive activities; Quiet atmosphere,Malfunctioning equipment
강릉원주대학교 박물관,21824426,강릉원주대학교 박물관은 영동지역 유물 전시와 특별 전시실을 운영하는 곳입니다.,관광지,박물관,강원특별자치도 강릉시 죽헌길 7,37.7707381838,128.8700824251,https://m.place.naver.com/restaurant/21824426/review/visitor?entry=ple&reviewSort=recent,,,TourAPI,12.0,7.0,19.0,Clean facilities; Effective instruction; Friendly service,
강릉커피박물관,13313746,"전 세계 커피 유물 전시와 체험, 커피나무 관람이 가능한 강릉 커피박물관입니다.",관광지,박물관,강원특별자치도 강릉시 왕산면 왕산로 2171-19,37.6523779889,128.7846465405,https://m.place.naver.com/restaurant/13313746/review/visitor?entry=ple&reviewSort=recent,"1인1음료시 무료관람: 5,000원",,TourAPI,314.0,438.0,752.0,Coffee quality; Friendly service; Relaxing atmosphere; Scenic view; Cultural exhibits,Restroom location; Misleading attraction
강릉시립미술관 교동,12762639,강릉시립미술관은 2층 전시공간과 다양한 체험 프로그램을 제공하는 곳입니다.,관광지,미술관,강원특별자치도 강릉시 화부산로40번길 46(교동),37.7606147594,128.890847534,https://m.place.naver.com/restaurant/12762639/review/visitor?entry=ple&reviewSort=recent,,,TourAPI,20.0,490.0,510.0,Art exhibition; Family-friendly; Scenic area; Friendly service; Cleanliness,
강릉자동차극장,266717564,"자동차 전용 극장과 전원형 카페, 셀프 바비큐 시설을 갖춘 복합레저타운입니다.",관광지,영화관,강원특별자치도 강릉시 구정면 칠성로 13-8,37.6935226206,128.8961380184,https://m.place.naver.com/restaurant/266717564/review/visitor?entry=ple&reviewSort=recent,"차량1대: 24,000원",,TourAPI,163.0,133.0,296.0,Quiet atmosphere; Snack variety; Friendly service; Unique experience; Drive-in theater,
주문진해양박물관,34818378,"주문진 해양박물관은 다양한 해양 생물 박제와 보석, 조개껍데기 등이 전시된 곳입니다.",관광지,박물관,강원특별자치도 강릉시 주문진읍 해안로 1748,37.8912178732,128.8287935273,https://m.place.naver.com/restaurant/34818378/review/visitor?entry=ple&reviewSort=recent,,,TourAPI,261.0,207.0,468.0,Souvenir shopping; Educational exhibits; Free admission; Child-friendly; Convenient parking,Outdated appearance; Limited attractions
고래책방,1357865119,강릉의 독립서점 겸 베이커리 북카페로 다양한 문화공간과 시설이 있는 곳입니다.,관광지,서점,강원특별자치도 강릉시 율곡로 2848 (옥천동)(옥천동),37.7582957085,128.8972525847,https://m.place.naver.com/restaurant/1357865119/review/visitor?entry=ple&reviewSort=recent,,,TourAPI,1591.0,1070.0,2661.0,Coffee and bakery; Family-friendly; Clean interior; Spacious environment; Variety of books,
아르떼뮤지엄 강릉,1090555407,강릉 아르떼뮤지엄은 11개 테마 전시실과 체험형 F&B 시설로 특별한 경험을 제공합니다.,관광지,미술관,"강원특별자치도 강릉시 난설헌로 131(초당동, 아르떼뮤지엄 강릉)",37.79008946,128.9079034181,https://m.place.naver.com/restaurant/1090555407/review/visitor?entry=ple&reviewSort=recent,"입장권 성인(1962-2006년생): 19,000원 | 입장권 청소년(2007-2012년생): 15,000원 | 입장권 어린이(2013-2018년생): 12,000원 | 입장권 아동(2019-2021년생): 10,000원",,TourAPI,16021.0,7378.0,23399.0,Beautiful exhibits; Immersive experience; Diverse exhibitions; Relaxing atmosphere; Photography-friendly,Time-consuming; Limited beverages; Lack of restrooms
자연아놀자 체험학습박물관,32777223,"곤충, 포유류, 갑각류 체험학습과 어류관, 파충류관 등 다양한 전시가 있는 박물관입니다.",관광지,"관람,체험",강원특별자치도 강릉시 난설헌로 105,37.7852954912,128.9038289338,https://m.place.naver.com/restaurant/32777223/review/visitor?entry=ple&reviewSort=recent,"입장권 어른/어린이(공통): 10,000원 | 20개월미만 무료: 무료 | 단체할인가능: 변동",,TourAPI,2583.0,630.0,3213.0,Animal interaction; Engaging experiences; Knowledgeable guides; Family-friendly; Well-maintained facilities,Limited space; Separate fees; Poor maintenance
강릉교육문화관,11592129,"강릉교육문화관은 다양한 자료실과 학습실, 문화활동실 등을 갖춘 복합 문화 공간입니다.",관광지,도서관,강원특별자치도 강릉시 노암등길 37-1 (노암동),37.7460638413,128.8998721711,https://m.place.naver.com/restaurant/11592129/review/visitor?entry=ple&reviewSort=recent,,,TourAPI,1.0,58.0,59.0,Spacious interior; Well-equipped reading rooms,
강릉시립미술관 솔올,2062786512,강릉시립미술관 솔올은 자연광과 백색 공간이 어우러진 현대미술 전시관입니다.,관광지,미술관,강원특별자치도 강릉시 원대로 45 (교동),37.7589258472,128.8796263745,https://m.place.naver.com/restaurant/2062786512/review/visitor?entry=ple&reviewSort=recent,,,TourAPI,1.0,92.0,93.0,Pleasant atmosphere; Pomegranate ade,
강릉올림픽뮤지엄,1211834959,강릉올림픽뮤지엄은 평창동계올림픽 기념물과 체험시설로 올림픽 정신을 느낄 수 있는 곳입니다.,관광지,박물관,강원특별자치도 강릉시 수리골길 102 (포남동)(강릉아레나),37.7793516031,128.8971158338,https://m.place.naver.com/restaurant/1211834959/review/visitor?entry=ple&reviewSort=recent,,,TourAPI,4.0,267.0,271.0,Interactive exhibits; Educational content; Olympic heritage; Friendly staff; Free admission,
갈골한과체험전시관,15704484,전통 한과를 직접 만들어보는 체험과 전시를 즐길 수 있는 갈골한과체험전시관입니다.,관광지,"박람회,전시회",강원특별자치도 강릉시 사천면 중앙서로 62,37.8245592109,128.8433165066,https://m.place.naver.com/restaurant/15704484/review/visitor?entry=ple&reviewSort=recent,,,TourAPI,18.0,6.0,24.0,Traditional sweets; Traditional snacks,
강릉 중앙시장,13345873,"강릉 중앙시장은 신선한 수산물과 다양한 먹거리, 생활 물품이 가득한 전통시장으로 옛 정취를 느낄 수 있는 명소입니다.",관광지,시장,강원 강릉시 금성로 21,37.7540166632039,128.898611774099,https://m.place.naver.com/restaurant/13345873/review/visitor?entry=ple&reviewSort=recent,,,TourAPI,1899.0,11978.0,,Affordable prices; Variety of food; Delicious specialties; Abundant attractions; Friendly service,Small portions
강릉 동부시장,13345874,"강릉 동부시장은 중앙시장과 함께 강릉을 대표하는 전통시장으로, 수산물과 신선한 재래식 먹거리가 특히 유명합니다.",관광지,시장,강원 강릉시 옥천로 48 동부시장,37.759852648995,128.900602457668,https://m.place.naver.com/restaurant/13345874/review/visitor?entry=ple&reviewSort=recent,,,TourAPI,11.0,44.0,,,Lack of attractions; High cost
강릉 서부시장,13345877,"강릉 서부시장은 생활용품과 먹거리, 로컬 상품과 문화행사를 즐길 수 있는 전통시장입니다.",관광지,시장,강원 강릉시 임영로155번길 6,37.7550938929409,128.89084226454,https://m.place.naver.com/restaurant/13345877/review/visitor?entry=ple&reviewSort=recent,,,TourAPI,75.0,215.0,,Value for money; Cleanliness; Spacious parking,Parking facilities
